[
  {
    "category" : "Featured",
    "city" : "Twentynine Palms",
    "state" : "California",
    "park" : "Joshua Tree National Park",
    "identifier" : "1001",
    "reuseIdentifier" : "LandmarkRow",
    "imageName" : "turtlerock",
    "coordinates" : {
      "longitude" : -116.16686799999999,
      "latitude" : 34.011285999999998
    },
    "name" : "Turtle Rock"
  },
  {
    "category" : "Lakes",
    "city" : "Port Alsworth",
    "state" : "Alaska",
    "park" : "Lake Clark National Park and Preserve",
    "identifier" : "1002",
    "reuseIdentifier" : "LandmarkRow",
    "imageName" : "silversalmoncreek",
    "coordinates" : {
      "longitude" : -152.665167,
      "latitude" : 59.980167000000002
    },
    "name" : "Silver Salmon Creek"
  },
  {
    "category" : "Rivers",
    "city" : "Skagway",
    "state" : "Alaska",
    "park" : "Klondike Gold Rush National Historical Park",
    "identifier" : "1003",
    "reuseIdentifier" : "LandmarkRow",
    "imageName" : "chilkoottrail",
    "coordinates" : {
      "longitude" : -135.33457100000001,
      "latitude" : 59.560550999999997
    },
    "name" : "Chilkoot Trail"
  },
  {
    "category" : "Lakes",
    "city" : "Browning",
    "state" : "Montana",
    "park" : "Glacier National Park",
    "identifier" : "1004",
    "reuseIdentifier" : "LandmarkRow",
    "imageName" : "stmarylake",
    "coordinates" : {
      "longitude" : -113.536248,
      "latitude" : 48.694229999999997
    },
    "name" : "St. Mary Lake"
  },
  {
    "category" : "Lakes",
    "city" : "Twin Lakes",
    "state" : "Alaska",
    "park" : "Lake Clark National Park and Preserve",
    "identifier" : "1005",
    "reuseIdentifier" : "LandmarkRow",
    "imageName" : "twinlake",
    "coordinates" : {
      "longitude" : -153.84988300000001,
      "latitude" : 60.641683999999998
    },
    "name" : "Twin Lake"
  },
  {
    "category" : "Lakes",
    "city" : "West Glacier",
    "state" : "Montana",
    "park" : "Glacier National Park",
    "identifier" : "1006",
    "reuseIdentifier" : "LandmarkRow",
    "imageName" : "lakemcdonald",
    "coordinates" : {
      "longitude" : -113.934831,
      "latitude" : 48.560020000000002
    },
    "name" : "Lake McDonald"
  },
  {
    "category" : "Rivers",
    "city" : "Eaking",
    "state" : "Alaska",
    "park" : "Charley Rivers National Preserve",
    "identifier" : "1007",
    "reuseIdentifier" : "LandmarkRow",
    "imageName" : "yukon_charleyrivers",
    "coordinates" : {
      "longitude" : -143.12258600000001,
      "latitude" : 65.350020999999998
    },
    "name" : "Charley Rivers"
  },
  {
    "category" : "Lakes",
    "city" : "Icy Bay",
    "state" : "Alaska",
    "park" : "Wrangell-St. Elias National Park and Preserve",
    "identifier" : "1008",
    "reuseIdentifier" : "LandmarkRow",
    "imageName" : "icybay",
    "coordinates" : {
      "longitude" : -141.51816700000001,
      "latitude" : 60.089917
    },
    "name" : "Icy Bay"
  },
  {
    "category" : "Lakes",
    "city" : "Willow",
    "state" : "Alaska",
    "park" : "State Recreation Area",
    "identifier" : "1009",
    "reuseIdentifier" : "LandmarkRow",
    "imageName" : "rainbowlake",
    "coordinates" : {
      "longitude" : -150.08610300000001,
      "latitude" : 61.694333999999998
    },
    "name" : "Rainbow Lake"
  },
  {
    "category" : "Lakes",
    "city" : "Newhalem",
    "state" : "Washington",
    "park" : "North Cascades National Park",
    "identifier" : "1010",
    "reuseIdentifier" : "LandmarkRow",
    "imageName" : "hiddenlake",
    "coordinates" : {
      "longitude" : -121.17798999999999,
      "latitude" : 48.495441999999997
    },
    "name" : "Hidden Lake"
  },
  {
    "category" : "Rivers",
    "city" : "Chincoteague",
    "state" : "Virginia",
    "park" : "Chincoteague National Wildlife Refuge",
    "identifier" : "1011",
    "reuseIdentifier" : "LandmarkRow",
    "imageName" : "chincoteague",
    "coordinates" : {
      "longitude" : -75.383212,
      "latitude" : 37.915309999999998
    },
    "name" : "Chincoteague"
  },
  {
    "category" : "Lakes",
    "city" : "Errol",
    "state" : "New Hampshire",
    "park" : "Umbagog National Wildlife Refuge",
    "identifier" : "1012",
    "reuseIdentifier" : "LandmarkRow1",
    "imageName" : "umbagog",
    "coordinates" : {
      "longitude" : -71.056815999999998,
      "latitude" : 44.747408
    },
    "name" : "Lake Umbagog"
  },
  {
    "category" : "Featured",
    "city" : "Twentynine Palms",
    "state" : "California",
    "park" : "Joshua Tree National Park",
    "identifier" : "1013",
    "reuseIdentifier" : "LandmarkRow2",
    "imageName" : "turtlerock",
    "coordinates" : {
      "longitude" : -116.16686799999999,
      "latitude" : 34.011285999999998
    },
    "name" : "Turtle Rock"
  },
  {
    "category" : "Lakes",
    "city" : "Port Alsworth",
    "state" : "Alaska",
    "park" : "Lake Clark National Park and Preserve",
    "identifier" : "1014",
    "reuseIdentifier" : "LandmarkRow",
    "imageName" : "silversalmoncreek",
    "coordinates" : {
      "longitude" : -152.665167,
      "latitude" : 59.980167000000002
    },
    "name" : "Silver Salmon Creek"
  },
  {
    "category" : "Rivers",
    "city" : "Skagway",
    "state" : "Alaska",
    "park" : "Klondike Gold Rush National Historical Park",
    "identifier" : "1015",
    "reuseIdentifier" : "LandmarkRow",
    "imageName" : "chilkoottrail",
    "coordinates" : {
      "longitude" : -135.33457100000001,
      "latitude" : 59.560550999999997
    },
    "name" : "Chilkoot Trail"
  },
  {
    "category" : "Lakes",
    "city" : "Browning",
    "state" : "Montana",
    "park" : "Glacier National Park",
    "identifier" : "1016",
    "reuseIdentifier" : "LandmarkRow1",
    "imageName" : "stmarylake",
    "coordinates" : {
      "longitude" : -113.536248,
      "latitude" : 48.694229999999997
    },
    "name" : "St. Mary Lake"
  },
  {
    "category" : "Lakes",
    "city" : "Twin Lakes",
    "state" : "Alaska",
    "park" : "Lake Clark National Park and Preserve",
    "identifier" : "1017",
    "reuseIdentifier" : "LandmarkRow",
    "imageName" : "twinlake",
    "coordinates" : {
      "longitude" : -153.84988300000001,
      "latitude" : 60.641683999999998
    },
    "name" : "Twin Lake"
  },
  {
    "category" : "Lakes",
    "city" : "West Glacier",
    "state" : "Montana",
    "park" : "Glacier National Park",
    "identifier" : "1018",
    "reuseIdentifier" : "LandmarkRow1",
    "imageName" : "lakemcdonald",
    "coordinates" : {
      "longitude" : -113.934831,
      "latitude" : 48.560020000000002
    },
    "name" : "Lake McDonald"
  },
  {
    "category" : "Rivers",
    "city" : "Eaking",
    "state" : "Alaska",
    "park" : "Charley Rivers National Preserve",
    "identifier" : "1019",
    "reuseIdentifier" : "LandmarkRow",
    "imageName" : "yukon_charleyrivers",
    "coordinates" : {
      "longitude" : -143.12258600000001,
      "latitude" : 65.350020999999998
    },
    "name" : "Charley Rivers"
  },
  {
    "category" : "Lakes",
    "city" : "Icy Bay",
    "state" : "Alaska",
    "park" : "Wrangell-St. Elias National Park and Preserve",
    "identifier" : "1020",
    "reuseIdentifier" : "LandmarkRow2",
    "imageName" : "icybay",
    "coordinates" : {
      "longitude" : -141.51816700000001,
      "latitude" : 60.089917
    },
    "name" : "Icy Bay"
  },
  {
    "category" : "Lakes",
    "city" : "Willow",
    "state" : "Alaska",
    "park" : "State Recreation Area",
    "identifier" : "1021",
    "reuseIdentifier" : "LandmarkRow",
    "imageName" : "rainbowlake",
    "coordinates" : {
      "longitude" : -150.08610300000001,
      "latitude" : 61.694333999999998
    },
    "name" : "Rainbow Lake"
  },
  {
    "category" : "Lakes",
    "city" : "Newhalem",
    "state" : "Washington",
    "park" : "North Cascades National Park",
    "identifier" : "1022",
    "reuseIdentifier" : "LandmarkRow1",
    "imageName" : "hiddenlake",
    "coordinates" : {
      "longitude" : -121.17798999999999,
      "latitude" : 48.495441999999997
    },
    "name" : "Hidden Lake"
  },
  {
    "category" : "Rivers",
    "city" : "Chincoteague",
    "state" : "Virginia",
    "park" : "Chincoteague National Wildlife Refuge",
    "identifier" : "1023",
    "reuseIdentifier" : "LandmarkRow",
    "imageName" : "chincoteague",
    "coordinates" : {
      "longitude" : -75.383212,
      "latitude" : 37.915309999999998
    },
    "name" : "Chincoteague"
  },
  {
    "category" : "Lakes",
    "city" : "Errol",
    "state" : "New Hampshire",
    "park" : "Umbagog National Wildlife Refuge",
    "identifier" : "1024",
    "reuseIdentifier" : "LandmarkRow2",
    "imageName" : "umbagog",
    "coordinates" : {
      "longitude" : -71.056815999999998,
      "latitude" : 44.747408
    },
    "name" : "Lake Umbagog"
  },
  {
    "category" : "Featured",
    "city" : "Twentynine Palms",
    "state" : "California",
    "park" : "Joshua Tree National Park",
    "identifier" : "1025",
    "reuseIdentifier" : "LandmarkRow",
    "imageName" : "turtlerock",
    "coordinates" : {
      "longitude" : -116.16686799999999,
      "latitude" : 34.011285999999998
    },
    "name" : "Turtle Rock"
  },
  {
    "category" : "Lakes",
    "city" : "Port Alsworth",
    "state" : "Alaska",
    "park" : "Lake Clark National Park and Preserve",
    "identifier" : "1026",
    "reuseIdentifier" : "LandmarkRow1",
    "imageName" : "silversalmoncreek",
    "coordinates" : {
      "longitude" : -152.665167,
      "latitude" : 59.980167000000002
    },
    "name" : "Silver Salmon Creek"
  },
  {
    "category" : "Rivers",
    "city" : "Skagway",
    "state" : "Alaska",
    "park" : "Klondike Gold Rush National Historical Park",
    "identifier" : "1027",
    "reuseIdentifier" : "LandmarkRow",
    "imageName" : "chilkoottrail",
    "coordinates" : {
      "longitude" : -135.33457100000001,
      "latitude" : 59.560550999999997
    },
    "name" : "Chilkoot Trail"
  },
  {
    "category" : "Lakes",
    "city" : "Browning",
    "state" : "Montana",
    "park" : "Glacier National Park",
    "identifier" : "1028",
    "reuseIdentifier" : "LandmarkRow",
    "imageName" : "stmarylake",
    "coordinates" : {
      "longitude" : -113.536248,
      "latitude" : 48.694229999999997
    },
    "name" : "St. Mary Lake"
  },
  {
    "category" : "Lakes",
    "city" : "Twin Lakes",
    "state" : "Alaska",
    "park" : "Lake Clark National Park and Preserve",
    "identifier" : "1029",
    "reuseIdentifier" : "LandmarkRow2",
    "imageName" : "twinlake",
    "coordinates" : {
      "longitude" : -153.84988300000001,
      "latitude" : 60.641683999999998
    },
    "name" : "Twin Lake"
  },
  {
    "category" : "Lakes",
    "city" : "West Glacier",
    "state" : "Montana",
    "park" : "Glacier National Park",
    "identifier" : "1030",
    "reuseIdentifier" : "LandmarkRow",
    "imageName" : "lakemcdonald",
    "coordinates" : {
      "longitude" : -113.934831,
      "latitude" : 48.560020000000002
    },
    "name" : "Lake McDonald"
  },
  {
    "category" : "Rivers",
    "city" : "Eaking",
    "state" : "Alaska",
    "park" : "Charley Rivers National Preserve",
    "identifier" : "1031",
    "reuseIdentifier" : "LandmarkRow",
    "imageName" : "yukon_charleyrivers",
    "coordinates" : {
      "longitude" : -143.12258600000001,
      "latitude" : 65.350020999999998
    },
    "name" : "Charley Rivers"
  },
  {
    "category" : "Lakes",
    "city" : "Icy Bay",
    "state" : "Alaska",
    "park" : "Wrangell-St. Elias National Park and Preserve",
    "identifier" : "1032",
    "reuseIdentifier" : "LandmarkRow",
    "imageName" : "icybay",
    "coordinates" : {
      "longitude" : -141.51816700000001,
      "latitude" : 60.089917
    },
    "name" : "Icy Bay"
  },
  {
    "category" : "Lakes",
    "city" : "Willow",
    "state" : "Alaska",
    "park" : "State Recreation Area",
    "identifier" : "1033",
    "reuseIdentifier" : "LandmarkRow1",
    "imageName" : "rainbowlake",
    "coordinates" : {
      "longitude" : -150.08610300000001,
      "latitude" : 61.694333999999998
    },
    "name" : "Rainbow Lake"
  },
  {
    "category" : "Lakes",
    "city" : "Newhalem",
    "state" : "Washington",
    "park" : "North Cascades National Park",
    "identifier" : "1034",
    "reuseIdentifier" : "LandmarkRow",
    "imageName" : "hiddenlake",
    "coordinates" : {
      "longitude" : -121.17798999999999,
      "latitude" : 48.495441999999997
    },
    "name" : "Hidden Lake"
  },
  {
    "category" : "Rivers",
    "city" : "Chincoteague",
    "state" : "Virginia",
    "park" : "Chincoteague National Wildlife Refuge",
    "identifier" : "1035",
    "reuseIdentifier" : "LandmarkRow",
    "imageName" : "chincoteague",
    "coordinates" : {
      "longitude" : -75.383212,
      "latitude" : 37.915309999999998
    },
    "name" : "Chincoteague"
  },
  {
    "category" : "Lakes",
    "city" : "Errol",
    "state" : "New Hampshire",
    "park" : "Umbagog National Wildlife Refuge",
    "identifier" : "1036",
    "reuseIdentifier" : "LandmarkRow2",
    "imageName" : "umbagog",
    "coordinates" : {
      "longitude" : -71.056815999999998,
      "latitude" : 44.747408
    },
    "name" : "Lake Umbagog"
  },
  {
    "category" : "Featured",
    "city" : "Twentynine Palms",
    "state" : "California",
    "park" : "Joshua Tree National Park",
    "identifier" : "1037",
    "reuseIdentifier" : "LandmarkRow",
    "imageName" : "turtlerock",
    "coordinates" : {
      "longitude" : -116.16686799999999,
      "latitude" : 34.011285999999998
    },
    "name" : "Turtle Rock"
  },
  {
    "category" : "Lakes",
    "city" : "Port Alsworth",
    "state" : "Alaska",
    "park" : "Lake Clark National Park and Preserve",
    "identifier" : "1038",
    "reuseIdentifier" : "LandmarkRow",
    "imageName" : "silversalmoncreek",
    "coordinates" : {
      "longitude" : -152.665167,
      "latitude" : 59.980167000000002
    },
    "name" : "Silver Salmon Creek"
  },
  {
    "category" : "Rivers",
    "city" : "Skagway",
    "state" : "Alaska",
    "park" : "Klondike Gold Rush National Historical Park",
    "identifier" : "1039",
    "reuseIdentifier" : "LandmarkRow1",
    "imageName" : "chilkoottrail",
    "coordinates" : {
      "longitude" : -135.33457100000001,
      "latitude" : 59.560550999999997
    },
    "name" : "Chilkoot Trail"
  },
  {
    "category" : "Lakes",
    "city" : "Browning",
    "state" : "Montana",
    "park" : "Glacier National Park",
    "identifier" : "1040",
    "reuseIdentifier" : "LandmarkRow",
    "imageName" : "stmarylake",
    "coordinates" : {
      "longitude" : -113.536248,
      "latitude" : 48.694229999999997
    },
    "name" : "St. Mary Lake"
  },
  {
    "category" : "Lakes",
    "city" : "Twin Lakes",
    "state" : "Alaska",
    "park" : "Lake Clark National Park and Preserve",
    "identifier" : "1041",
    "reuseIdentifier" : "LandmarkRow",
    "imageName" : "twinlake",
    "coordinates" : {
      "longitude" : -153.84988300000001,
      "latitude" : 60.641683999999998
    },
    "name" : "Twin Lake"
  },
  {
    "category" : "Lakes",
    "city" : "West Glacier",
    "state" : "Montana",
    "park" : "Glacier National Park",
    "identifier" : "1042",
    "reuseIdentifier" : "LandmarkRow2",
    "imageName" : "lakemcdonald",
    "coordinates" : {
      "longitude" : -113.934831,
      "latitude" : 48.560020000000002
    },
    "name" : "Lake McDonald"
  },
  {
    "category" : "Rivers",
    "city" : "Eaking",
    "state" : "Alaska",
    "park" : "Charley Rivers National Preserve",
    "identifier" : "1043",
    "reuseIdentifier" : "LandmarkRow",
    "imageName" : "yukon_charleyrivers",
    "coordinates" : {
      "longitude" : -143.12258600000001,
      "latitude" : 65.350020999999998
    },
    "name" : "Charley Rivers"
  },
  {
    "category" : "Lakes",
    "city" : "Icy Bay",
    "state" : "Alaska",
    "park" : "Wrangell-St. Elias National Park and Preserve",
    "identifier" : "1044",
    "reuseIdentifier" : "LandmarkRow",
    "imageName" : "icybay",
    "coordinates" : {
      "longitude" : -141.51816700000001,
      "latitude" : 60.089917
    },
    "name" : "Icy Bay"
  },
  {
    "category" : "Lakes",
    "city" : "Willow",
    "state" : "Alaska",
    "park" : "State Recreation Area",
    "identifier" : "1045",
    "reuseIdentifier" : "LandmarkRow",
    "imageName" : "rainbowlake",
    "coordinates" : {
      "longitude" : -150.08610300000001,
      "latitude" : 61.694333999999998
    },
    "name" : "Rainbow Lake"
  },
  {
    "category" : "Lakes",
    "city" : "Newhalem",
    "state" : "Washington",
    "park" : "North Cascades National Park",
    "identifier" : "1046",
    "reuseIdentifier" : "LandmarkRow1",
    "imageName" : "hiddenlake",
    "coordinates" : {
      "longitude" : -121.17798999999999,
      "latitude" : 48.495441999999997
    },
    "name" : "Hidden Lake"
  },
  {
    "category" : "Rivers",
    "city" : "Chincoteague",
    "state" : "Virginia",
    "park" : "Chincoteague National Wildlife Refuge",
    "identifier" : "1047",
    "reuseIdentifier" : "LandmarkRow",
    "imageName" : "chincoteague",
    "coordinates" : {
      "longitude" : -75.383212,
      "latitude" : 37.915309999999998
    },
    "name" : "Chincoteague"
  },
  {
    "category" : "Lakes",
    "city" : "Errol",
    "state" : "New Hampshire",
    "park" : "Umbagog National Wildlife Refuge",
    "identifier" : "1048",
    "reuseIdentifier" : "LandmarkRow",
    "imageName" : "umbagog",
    "coordinates" : {
      "longitude" : -71.056815999999998,
      "latitude" : 44.747408
    },
    "name" : "Lake Umbagog"
  },
  {
    "category" : "Featured",
    "city" : "Twentynine Palms",
    "state" : "California",
    "park" : "Joshua Tree National Park",
    "identifier" : "1049",
    "reuseIdentifier" : "LandmarkRow2",
    "imageName" : "turtlerock",
    "coordinates" : {
      "longitude" : -116.16686799999999,
      "latitude" : 34.011285999999998
    },
    "name" : "Turtle Rock"
  },
  {
    "category" : "Lakes",
    "city" : "Port Alsworth",
    "state" : "Alaska",
    "park" : "Lake Clark National Park and Preserve",
    "identifier" : "1050",
    "reuseIdentifier" : "LandmarkRow",
    "imageName" : "silversalmoncreek",
    "coordinates" : {
      "longitude" : -152.665167,
      "latitude" : 59.980167000000002
    },
    "name" : "Silver Salmon Creek"
  },
  {
    "category" : "Rivers",
    "city" : "Skagway",
    "state" : "Alaska",
    "park" : "Klondike Gold Rush National Historical Park",
    "identifier" : "1051",
    "reuseIdentifier" : "LandmarkRow",
    "imageName" : "chilkoottrail",
    "coordinates" : {
      "longitude" : -135.33457100000001,
      "latitude" : 59.560550999999997
    },
    "name" : "Chilkoot Trail"
  },
  {
    "category" : "Lakes",
    "city" : "Browning",
    "state" : "Montana",
    "park" : "Glacier National Park",
    "identifier" : "1052",
    "reuseIdentifier" : "LandmarkRow1",
    "imageName" : "stmarylake",
    "coordinates" : {
      "longitude" : -113.536248,
      "latitude" : 48.694229999999997
    },
    "name" : "St. Mary Lake"
  },
  {
    "category" : "Lakes",
    "city" : "Twin Lakes",
    "state" : "Alaska",
    "park" : "Lake Clark National Park and Preserve",
    "identifier" : "1053",
    "reuseIdentifier" : "LandmarkRow",
    "imageName" : "twinlake",
    "coordinates" : {
      "longitude" : -153.84988300000001,
      "latitude" : 60.641683999999998
    },
    "name" : "Twin Lake"
  },
  {
    "category" : "Lakes",
    "city" : "West Glacier",
    "state" : "Montana",
    "park" : "Glacier National Park",
    "identifier" : "1054",
    "reuseIdentifier" : "LandmarkRow",
    "imageName" : "lakemcdonald",
    "coordinates" : {
      "longitude" : -113.934831,
      "latitude" : 48.560020000000002
    },
    "name" : "Lake McDonald"
  },
  {
    "category" : "Rivers",
    "city" : "Eaking",
    "state" : "Alaska",
    "park" : "Charley Rivers National Preserve",
    "identifier" : "1055",
    "reuseIdentifier" : "LandmarkRow",
    "imageName" : "yukon_charleyrivers",
    "coordinates" : {
      "longitude" : -143.12258600000001,
      "latitude" : 65.350020999999998
    },
    "name" : "Charley Rivers"
  },
  {
    "category" : "Lakes",
    "city" : "Icy Bay",
    "state" : "Alaska",
    "park" : "Wrangell-St. Elias National Park and Preserve",
    "identifier" : "1056",
    "reuseIdentifier" : "LandmarkRow2",
    "imageName" : "icybay",
    "coordinates" : {
      "longitude" : -141.51816700000001,
      "latitude" : 60.089917
    },
    "name" : "Icy Bay"
  },
  {
    "category" : "Lakes",
    "city" : "Willow",
    "state" : "Alaska",
    "park" : "State Recreation Area",
    "identifier" : "1057",
    "reuseIdentifier" : "LandmarkRow",
    "imageName" : "rainbowlake",
    "coordinates" : {
      "longitude" : -150.08610300000001,
      "latitude" : 61.694333999999998
    },
    "name" : "Rainbow Lake"
  },
  {
    "category" : "Lakes",
    "city" : "Newhalem",
    "state" : "Washington",
    "park" : "North Cascades National Park",
    "identifier" : "1058",
    "reuseIdentifier" : "LandmarkRow",
    "imageName" : "hiddenlake",
    "coordinates" : {
      "longitude" : -121.17798999999999,
      "latitude" : 48.495441999999997
    },
    "name" : "Hidden Lake"
  },
  {
    "category" : "Rivers",
    "city" : "Chincoteague",
    "state" : "Virginia",
    "park" : "Chincoteague National Wildlife Refuge",
    "identifier" : "1059",
    "reuseIdentifier" : "LandmarkRow1",
    "imageName" : "chincoteague",
    "coordinates" : {
      "longitude" : -75.383212,
      "latitude" : 37.915309999999998
    },
    "name" : "Chincoteague"
  },
  {
    "category" : "Lakes",
    "city" : "Errol",
    "state" : "New Hampshire",
    "park" : "Umbagog National Wildlife Refuge",
    "identifier" : "1060",
    "reuseIdentifier" : "LandmarkRow",
    "imageName" : "umbagog",
    "coordinates" : {
      "longitude" : -71.056815999999998,
      "latitude" : 44.747408
    },
    "name" : "Lake Umbagog"
  },
  {
    "category" : "Featured",
    "city" : "Twentynine Palms",
    "state" : "California",
    "park" : "Joshua Tree National Park",
    "identifier" : "1061",
    "reuseIdentifier" : "LandmarkRow",
    "imageName" : "turtlerock",
    "coordinates" : {
      "longitude" : -116.16686799999999,
      "latitude" : 34.011285999999998
    },
    "name" : "Turtle Rock"
  },
  {
    "category" : "Lakes",
    "city" : "Port Alsworth",
    "state" : "Alaska",
    "park" : "Lake Clark National Park and Preserve",
    "identifier" : "1062",
    "reuseIdentifier" : "LandmarkRow2",
    "imageName" : "silversalmoncreek",
    "coordinates" : {
      "longitude" : -152.665167,
      "latitude" : 59.980167000000002
    },
    "name" : "Silver Salmon Creek"
  },
  {
    "category" : "Rivers",
    "city" : "Skagway",
    "state" : "Alaska",
    "park" : "Klondike Gold Rush National Historical Park",
    "identifier" : "1063",
    "reuseIdentifier" : "LandmarkRow",
    "imageName" : "chilkoottrail",
    "coordinates" : {
      "longitude" : -135.33457100000001,
      "latitude" : 59.560550999999997
    },
    "name" : "Chilkoot Trail"
  },
  {
    "category" : "Lakes",
    "city" : "Browning",
    "state" : "Montana",
    "park" : "Glacier National Park",
    "identifier" : "1064",
    "reuseIdentifier" : "LandmarkRow",
    "imageName" : "stmarylake",
    "coordinates" : {
      "longitude" : -113.536248,
      "latitude" : 48.694229999999997
    },
    "name" : "St. Mary Lake"
  },
  {
    "category" : "Lakes",
    "city" : "Twin Lakes",
    "state" : "Alaska",
    "park" : "Lake Clark National Park and Preserve",
    "identifier" : "1065",
    "reuseIdentifier" : "LandmarkRow1",
    "imageName" : "twinlake",
    "coordinates" : {
      "longitude" : -153.84988300000001,
      "latitude" : 60.641683999999998
    },
    "name" : "Twin Lake"
  },
  {
    "category" : "Lakes",
    "city" : "West Glacier",
    "state" : "Montana",
    "park" : "Glacier National Park",
    "identifier" : "1066",
    "reuseIdentifier" : "LandmarkRow",
    "imageName" : "lakemcdonald",
    "coordinates" : {
      "longitude" : -113.934831,
      "latitude" : 48.560020000000002
    },
    "name" : "Lake McDonald"
  },
  {
    "category" : "Rivers",
    "city" : "Eaking",
    "state" : "Alaska",
    "park" : "Charley Rivers National Preserve",
    "identifier" : "1067",
    "reuseIdentifier" : "LandmarkRow",
    "imageName" : "yukon_charleyrivers",
    "coordinates" : {
      "longitude" : -143.12258600000001,
      "latitude" : 65.350020999999998
    },
    "name" : "Charley Rivers"
  },
  {
    "category" : "Lakes",
    "city" : "Icy Bay",
    "state" : "Alaska",
    "park" : "Wrangell-St. Elias National Park and Preserve",
    "identifier" : "1068",
    "reuseIdentifier" : "LandmarkRow2",
    "imageName" : "icybay",
    "coordinates" : {
      "longitude" : -141.51816700000001,
      "latitude" : 60.089917
    },
    "name" : "Icy Bay"
  },
  {
    "category" : "Lakes",
    "city" : "Willow",
    "state" : "Alaska",
    "park" : "State Recreation Area",
    "identifier" : "1069",
    "reuseIdentifier" : "LandmarkRow",
    "imageName" : "rainbowlake",
    "coordinates" : {
      "longitude" : -150.08610300000001,
      "latitude" : 61.694333999999998
    },
    "name" : "Rainbow Lake"
  },
  {
    "category" : "Lakes",
    "city" : "Newhalem",
    "state" : "Washington",
    "park" : "North Cascades National Park",
    "identifier" : "1070",
    "reuseIdentifier" : "LandmarkRow",
    "imageName" : "hiddenlake",
    "coordinates" : {
      "longitude" : -121.17798999999999,
      "latitude" : 48.495441999999997
    },
    "name" : "Hidden Lake"
  },
  {
    "category" : "Rivers",
    "city" : "Chincoteague",
    "state" : "Virginia",
    "park" : "Chincoteague National Wildlife Refuge",
    "identifier" : "1071",
    "reuseIdentifier" : "LandmarkRow",
    "imageName" : "chincoteague",
    "coordinates" : {
      "longitude" : -75.383212,
      "latitude" : 37.915309999999998
    },
    "name" : "Chincoteague"
  },
  {
    "category" : "Lakes",
    "city" : "Errol",
    "state" : "New Hampshire",
    "park" : "Umbagog National Wildlife Refuge",
    "identifier" : "1072",
    "reuseIdentifier" : "LandmarkRow1",
    "imageName" : "umbagog",
    "coordinates" : {
      "longitude" : -71.056815999999998,
      "latitude" : 44.747408
    },
    "name" : "Lake Umbagog"
  },
  {
    "category" : "Featured",
    "city" : "Twentynine Palms",
    "state" : "California",
    "park" : "Joshua Tree National Park",
    "identifier" : "1073",
    "reuseIdentifier" : "LandmarkRow",
    "imageName" : "turtlerock",
    "coordinates" : {
      "longitude" : -116.16686799999999,
      "latitude" : 34.011285999999998
    },
    "name" : "Turtle Rock"
  },
  {
    "category" : "Lakes",
    "city" : "Port Alsworth",
    "state" : "Alaska",
    "park" : "Lake Clark National Park and Preserve",
    "identifier" : "1074",
    "reuseIdentifier" : "LandmarkRow",
    "imageName" : "silversalmoncreek",
    "coordinates" : {
      "longitude" : -152.665167,
      "latitude" : 59.980167000000002
    },
    "name" : "Silver Salmon Creek"
  },
  {
    "category" : "Rivers",
    "city" : "Skagway",
    "state" : "Alaska",
    "park" : "Klondike Gold Rush National Historical Park",
    "identifier" : "1075",
    "reuseIdentifier" : "LandmarkRow",
    "imageName" : "chilkoottrail",
    "coordinates" : {
      "longitude" : -135.33457100000001,
      "latitude" : 59.560550999999997
    },
    "name" : "Chilkoot Trail"
  },
  {
    "category" : "Lakes",
    "city" : "Browning",
    "state" : "Montana",
    "park" : "Glacier National Park",
    "identifier" : "1076",
    "reuseIdentifier" : "LandmarkRow2",
    "imageName" : "stmarylake",
    "coordinates" : {
      "longitude" : -113.536248,
      "latitude" : 48.694229999999997
    },
    "name" : "St. Mary Lake"
  },
  {
    "category" : "Lakes",
    "city" : "Twin Lakes",
    "state" : "Alaska",
    "park" : "Lake Clark National Park and Preserve",
    "identifier" : "1077",
    "reuseIdentifier" : "LandmarkRow",
    "imageName" : "twinlake",
    "coordinates" : {
      "longitude" : -153.84988300000001,
      "latitude" : 60.641683999999998
    },
    "name" : "Twin Lake"
  },
  {
    "category" : "Lakes",
    "city" : "West Glacier",
    "state" : "Montana",
    "park" : "Glacier National Park",
    "identifier" : "1078",
    "reuseIdentifier" : "LandmarkRow",
    "imageName" : "lakemcdonald",
    "coordinates" : {
      "longitude" : -113.934831,
      "latitude" : 48.560020000000002
    },
    "name" : "Lake McDonald"
  },
  {
    "category" : "Rivers",
    "city" : "Eaking",
    "state" : "Alaska",
    "park" : "Charley Rivers National Preserve",
    "identifier" : "1079",
    "reuseIdentifier" : "LandmarkRow",
    "imageName" : "yukon_charleyrivers",
    "coordinates" : {
      "longitude" : -143.12258600000001,
      "latitude" : 65.350020999999998
    },
    "name" : "Charley Rivers"
  },
  {
    "category" : "Lakes",
    "city" : "Icy Bay",
    "state" : "Alaska",
    "park" : "Wrangell-St. Elias National Park and Preserve",
    "identifier" : "1080",
    "reuseIdentifier" : "LandmarkRow",
    "imageName" : "icybay",
    "coordinates" : {
      "longitude" : -141.51816700000001,
      "latitude" : 60.089917
    },
    "name" : "Icy Bay"
  },
  {
    "category" : "Lakes",
    "city" : "Willow",
    "state" : "Alaska",
    "park" : "State Recreation Area",
    "identifier" : "1081",
    "reuseIdentifier" : "LandmarkRow",
    "imageName" : "rainbowlake",
    "coordinates" : {
      "longitude" : -150.08610300000001,
      "latitude" : 61.694333999999998
    },
    "name" : "Rainbow Lake"
  },
  {
    "category" : "Lakes",
    "city" : "Newhalem",
    "state" : "Washington",
    "park" : "North Cascades National Park",
    "identifier" : "1082",
    "reuseIdentifier" : "LandmarkRow",
    "imageName" : "hiddenlake",
    "coordinates" : {
      "longitude" : -121.17798999999999,
      "latitude" : 48.495441999999997
    },
    "name" : "Hidden Lake"
  },
  {
    "category" : "Rivers",
    "city" : "Chincoteague",
    "state" : "Virginia",
    "park" : "Chincoteague National Wildlife Refuge",
    "identifier" : "1083",
    "reuseIdentifier" : "LandmarkRow",
    "imageName" : "chincoteague",
    "coordinates" : {
      "longitude" : -75.383212,
      "latitude" : 37.915309999999998
    },
    "name" : "Chincoteague"
  },
  {
    "category" : "Lakes",
    "city" : "Errol",
    "state" : "New Hampshire",
    "park" : "Umbagog National Wildlife Refuge",
    "identifier" : "1084",
    "reuseIdentifier" : "LandmarkRow",
    "imageName" : "umbagog",
    "coordinates" : {
      "longitude" : -71.056815999999998,
      "latitude" : 44.747408
    },
    "name" : "Lake Umbagog"
  },
  {
    "category" : "Featured",
    "city" : "Twentynine Palms",
    "state" : "California",
    "park" : "Joshua Tree National Park",
    "identifier" : "1085",
    "reuseIdentifier" : "LandmarkRow",
    "imageName" : "turtlerock",
    "coordinates" : {
      "longitude" : -116.16686799999999,
      "latitude" : 34.011285999999998
    },
    "name" : "Turtle Rock"
  },
  {
    "category" : "Lakes",
    "city" : "Port Alsworth",
    "state" : "Alaska",
    "park" : "Lake Clark National Park and Preserve",
    "identifier" : "1086",
    "reuseIdentifier" : "LandmarkRow",
    "imageName" : "silversalmoncreek",
    "coordinates" : {
      "longitude" : -152.665167,
      "latitude" : 59.980167000000002
    },
    "name" : "Silver Salmon Creek"
  },
  {
    "category" : "Rivers",
    "city" : "Skagway",
    "state" : "Alaska",
    "park" : "Klondike Gold Rush National Historical Park",
    "identifier" : "1087",
    "reuseIdentifier" : "LandmarkRow1",
    "imageName" : "chilkoottrail",
    "coordinates" : {
      "longitude" : -135.33457100000001,
      "latitude" : 59.560550999999997
    },
    "name" : "Chilkoot Trail"
  },
  {
    "category" : "Lakes",
    "city" : "Browning",
    "state" : "Montana",
    "park" : "Glacier National Park",
    "identifier" : "1088",
    "reuseIdentifier" : "LandmarkRow",
    "imageName" : "stmarylake",
    "coordinates" : {
      "longitude" : -113.536248,
      "latitude" : 48.694229999999997
    },
    "name" : "St. Mary Lake"
  },
  {
    "category" : "Lakes",
    "city" : "Twin Lakes",
    "state" : "Alaska",
    "park" : "Lake Clark National Park and Preserve",
    "identifier" : "1089",
    "reuseIdentifier" : "LandmarkRow",
    "imageName" : "twinlake",
    "coordinates" : {
      "longitude" : -153.84988300000001,
      "latitude" : 60.641683999999998
    },
    "name" : "Twin Lake"
  },
  {
    "category" : "Lakes",
    "city" : "West Glacier",
    "state" : "Montana",
    "park" : "Glacier National Park",
    "identifier" : "1090",
    "reuseIdentifier" : "LandmarkRow",
    "imageName" : "lakemcdonald",
    "coordinates" : {
      "longitude" : -113.934831,
      "latitude" : 48.560020000000002
    },
    "name" : "Lake McDonald"
  },
  {
    "category" : "Rivers",
    "city" : "Eaking",
    "state" : "Alaska",
    "park" : "Charley Rivers National Preserve",
    "identifier" : "1091",
    "reuseIdentifier" : "LandmarkRow2",
    "imageName" : "yukon_charleyrivers",
    "coordinates" : {
      "longitude" : -143.12258600000001,
      "latitude" : 65.350020999999998
    },
    "name" : "Charley Rivers"
  },
  {
    "category" : "Lakes",
    "city" : "Icy Bay",
    "state" : "Alaska",
    "park" : "Wrangell-St. Elias National Park and Preserve",
    "identifier" : "1092",
    "reuseIdentifier" : "LandmarkRow",
    "imageName" : "icybay",
    "coordinates" : {
      "longitude" : -141.51816700000001,
      "latitude" : 60.089917
    },
    "name" : "Icy Bay"
  },
  {
    "category" : "Lakes",
    "city" : "Willow",
    "state" : "Alaska",
    "park" : "State Recreation Area",
    "identifier" : "1093",
    "reuseIdentifier" : "LandmarkRow",
    "imageName" : "rainbowlake",
    "coordinates" : {
      "longitude" : -150.08610300000001,
      "latitude" : 61.694333999999998
    },
    "name" : "Rainbow Lake"
  },
  {
    "category" : "Lakes",
    "city" : "Newhalem",
    "state" : "Washington",
    "park" : "North Cascades National Park",
    "identifier" : "1094",
    "reuseIdentifier" : "LandmarkRow1",
    "imageName" : "hiddenlake",
    "coordinates" : {
      "longitude" : -121.17798999999999,
      "latitude" : 48.495441999999997
    },
    "name" : "Hidden Lake"
  },
  {
    "category" : "Rivers",
    "city" : "Chincoteague",
    "state" : "Virginia",
    "park" : "Chincoteague National Wildlife Refuge",
    "identifier" : "1095",
    "reuseIdentifier" : "LandmarkRow",
    "imageName" : "chincoteague",
    "coordinates" : {
      "longitude" : -75.383212,
      "latitude" : 37.915309999999998
    },
    "name" : "Chincoteague"
  },
  {
    "category" : "Lakes",
    "city" : "Errol",
    "state" : "New Hampshire",
    "park" : "Umbagog National Wildlife Refuge",
    "identifier" : "1096",
    "reuseIdentifier" : "LandmarkRow",
    "imageName" : "umbagog",
    "coordinates" : {
      "longitude" : -71.056815999999998,
      "latitude" : 44.747408
    },
    "name" : "Lake Umbagog"
  },
  {
    "category" : "Featured",
    "city" : "Twentynine Palms",
    "state" : "California",
    "park" : "Joshua Tree National Park",
    "identifier" : "1097",
    "reuseIdentifier" : "LandmarkRow2",
    "imageName" : "turtlerock",
    "coordinates" : {
      "longitude" : -116.16686799999999,
      "latitude" : 34.011285999999998
    },
    "name" : "Turtle Rock"
  },
  {
    "category" : "Lakes",
    "city" : "Port Alsworth",
    "state" : "Alaska",
    "park" : "Lake Clark National Park and Preserve",
    "identifier" : "1098",
    "reuseIdentifier" : "LandmarkRow",
    "imageName" : "silversalmoncreek",
    "coordinates" : {
      "longitude" : -152.665167,
      "latitude" : 59.980167000000002
    },
    "name" : "Silver Salmon Creek"
  },
  {
    "category" : "Rivers",
    "city" : "Skagway",
    "state" : "Alaska",
    "park" : "Klondike Gold Rush National Historical Park",
    "identifier" : "1099",
    "reuseIdentifier" : "LandmarkRow1",
    "imageName" : "chilkoottrail",
    "coordinates" : {
      "longitude" : -135.33457100000001,
      "latitude" : 59.560550999999997
    },
    "name" : "Chilkoot Trail"
  },
  {
    "category" : "Lakes",
    "city" : "Browning",
    "state" : "Montana",
    "park" : "Glacier National Park",
    "identifier" : "1100",
    "reuseIdentifier" : "LandmarkRow",
    "imageName" : "stmarylake",
    "coordinates" : {
      "longitude" : -113.536248,
      "latitude" : 48.694229999999997
    },
    "name" : "St. Mary Lake"
  },
  {
    "category" : "Lakes",
    "city" : "Twin Lakes",
    "state" : "Alaska",
    "park" : "Lake Clark National Park and Preserve",
    "identifier" : "1101",
    "reuseIdentifier" : "LandmarkRow2",
    "imageName" : "twinlake",
    "coordinates" : {
      "longitude" : -153.84988300000001,
      "latitude" : 60.641683999999998
    },
    "name" : "Twin Lake"
  },
  {
    "category" : "Lakes",
    "city" : "West Glacier",
    "state" : "Montana",
    "park" : "Glacier National Park",
    "identifier" : "1102",
    "reuseIdentifier" : "LandmarkRow",
    "imageName" : "lakemcdonald",
    "coordinates" : {
      "longitude" : -113.934831,
      "latitude" : 48.560020000000002
    },
    "name" : "Lake McDonald"
  },
  {
    "category" : "Rivers",
    "city" : "Eaking",
    "state" : "Alaska",
    "park" : "Charley Rivers National Preserve",
    "identifier" : "1103",
    "reuseIdentifier" : "LandmarkRow1",
    "imageName" : "yukon_charleyrivers",
    "coordinates" : {
      "longitude" : -143.12258600000001,
      "latitude" : 65.350020999999998
    },
    "name" : "Charley Rivers"
  },
  {
    "category" : "Lakes",
    "city" : "Icy Bay",
    "state" : "Alaska",
    "park" : "Wrangell-St. Elias National Park and Preserve",
    "identifier" : "1104",
    "reuseIdentifier" : "LandmarkRow",
    "imageName" : "icybay",
    "coordinates" : {
      "longitude" : -141.51816700000001,
      "latitude" : 60.089917
    },
    "name" : "Icy Bay"
  },
  {
    "category" : "Lakes",
    "city" : "Willow",
    "state" : "Alaska",
    "park" : "State Recreation Area",
    "identifier" : "1105",
    "reuseIdentifier" : "LandmarkRow",
    "imageName" : "rainbowlake",
    "coordinates" : {
      "longitude" : -150.08610300000001,
      "latitude" : 61.694333999999998
    },
    "name" : "Rainbow Lake"
  },
  {
    "category" : "Lakes",
    "city" : "Newhalem",
    "state" : "Washington",
    "park" : "North Cascades National Park",
    "identifier" : "1106",
    "reuseIdentifier" : "LandmarkRow2",
    "imageName" : "hiddenlake",
    "coordinates" : {
      "longitude" : -121.17798999999999,
      "latitude" : 48.495441999999997
    },
    "name" : "Hidden Lake"
  },
  {
    "category" : "Rivers",
    "city" : "Chincoteague",
    "state" : "Virginia",
    "park" : "Chincoteague National Wildlife Refuge",
    "identifier" : "1107",
    "reuseIdentifier" : "LandmarkRow",
    "imageName" : "chincoteague",
    "coordinates" : {
      "longitude" : -75.383212,
      "latitude" : 37.915309999999998
    },
    "name" : "Chincoteague"
  },
  {
    "category" : "Lakes",
    "city" : "Errol",
    "state" : "New Hampshire",
    "park" : "Umbagog National Wildlife Refuge",
    "identifier" : "1108",
    "reuseIdentifier" : "LandmarkRow",
    "imageName" : "umbagog",
    "coordinates" : {
      "longitude" : -71.056815999999998,
      "latitude" : 44.747408
    },
    "name" : "Lake Umbagog"
  },
  {
    "category" : "Featured",
    "city" : "Twentynine Palms",
    "state" : "California",
    "park" : "Joshua Tree National Park",
    "identifier" : "1109",
    "reuseIdentifier" : "LandmarkRow1",
    "imageName" : "turtlerock",
    "coordinates" : {
      "longitude" : -116.16686799999999,
      "latitude" : 34.011285999999998
    },
    "name" : "Turtle Rock"
  },
  {
    "category" : "Lakes",
    "city" : "Port Alsworth",
    "state" : "Alaska",
    "park" : "Lake Clark National Park and Preserve",
    "identifier" : "1110",
    "reuseIdentifier" : "LandmarkRow",
    "imageName" : "silversalmoncreek",
    "coordinates" : {
      "longitude" : -152.665167,
      "latitude" : 59.980167000000002
    },
    "name" : "Silver Salmon Creek"
  },
  {
    "category" : "Rivers",
    "city" : "Skagway",
    "state" : "Alaska",
    "park" : "Klondike Gold Rush National Historical Park",
    "identifier" : "1111",
    "reuseIdentifier" : "LandmarkRow2",
    "imageName" : "chilkoottrail",
    "coordinates" : {
      "longitude" : -135.33457100000001,
      "latitude" : 59.560550999999997
    },
    "name" : "Chilkoot Trail"
  },
  {
    "category" : "Lakes",
    "city" : "Browning",
    "state" : "Montana",
    "park" : "Glacier National Park",
    "identifier" : "1112",
    "reuseIdentifier" : "LandmarkRow",
    "imageName" : "stmarylake",
    "coordinates" : {
      "longitude" : -113.536248,
      "latitude" : 48.694229999999997
    },
    "name" : "St. Mary Lake"
  },
  {
    "category" : "Lakes",
    "city" : "Twin Lakes",
    "state" : "Alaska",
    "park" : "Lake Clark National Park and Preserve",
    "identifier" : "1113",
    "reuseIdentifier" : "LandmarkRow",
    "imageName" : "twinlake",
    "coordinates" : {
      "longitude" : -153.84988300000001,
      "latitude" : 60.641683999999998
    },
    "name" : "Twin Lake"
  },
  {
    "category" : "Lakes",
    "city" : "West Glacier",
    "state" : "Montana",
    "park" : "Glacier National Park",
    "identifier" : "1114",
    "reuseIdentifier" : "LandmarkRow1",
    "imageName" : "lakemcdonald",
    "coordinates" : {
      "longitude" : -113.934831,
      "latitude" : 48.560020000000002
    },
    "name" : "Lake McDonald"
  },
  {
    "category" : "Rivers",
    "city" : "Eaking",
    "state" : "Alaska",
    "park" : "Charley Rivers National Preserve",
    "identifier" : "1115",
    "reuseIdentifier" : "LandmarkRow2",
    "imageName" : "yukon_charleyrivers",
    "coordinates" : {
      "longitude" : -143.12258600000001,
      "latitude" : 65.350020999999998
    },
    "name" : "Charley Rivers"
  },
  {
    "category" : "Lakes",
    "city" : "Icy Bay",
    "state" : "Alaska",
    "park" : "Wrangell-St. Elias National Park and Preserve",
    "identifier" : "1116",
    "reuseIdentifier" : "LandmarkRow",
    "imageName" : "icybay",
    "coordinates" : {
      "longitude" : -141.51816700000001,
      "latitude" : 60.089917
    },
    "name" : "Icy Bay"
  },
  {
    "category" : "Lakes",
    "city" : "Willow",
    "state" : "Alaska",
    "park" : "State Recreation Area",
    "identifier" : "1117",
    "reuseIdentifier" : "LandmarkRow",
    "imageName" : "rainbowlake",
    "coordinates" : {
      "longitude" : -150.08610300000001,
      "latitude" : 61.694333999999998
    },
    "name" : "Rainbow Lake"
  },
  {
    "category" : "Lakes",
    "city" : "Newhalem",
    "state" : "Washington",
    "park" : "North Cascades National Park",
    "identifier" : "1118",
    "reuseIdentifier" : "LandmarkRow",
    "imageName" : "hiddenlake",
    "coordinates" : {
      "longitude" : -121.17798999999999,
      "latitude" : 48.495441999999997
    },
    "name" : "Hidden Lake"
  },
  {
    "category" : "Rivers",
    "city" : "Chincoteague",
    "state" : "Virginia",
    "park" : "Chincoteague National Wildlife Refuge",
    "identifier" : "1119",
    "reuseIdentifier" : "LandmarkRow",
    "imageName" : "chincoteague",
    "coordinates" : {
      "longitude" : -75.383212,
      "latitude" : 37.915309999999998
    },
    "name" : "Chincoteague"
  },
  {
    "category" : "Lakes",
    "city" : "Errol",
    "state" : "New Hampshire",
    "park" : "Umbagog National Wildlife Refuge",
    "identifier" : "1120",
    "reuseIdentifier" : "LandmarkRow",
    "imageName" : "umbagog",
    "coordinates" : {
      "longitude" : -71.056815999999998,
      "latitude" : 44.747408
    },
    "name" : "Lake Umbagog"
  },
  {
    "category" : "Featured",
    "city" : "Twentynine Palms",
    "state" : "California",
    "park" : "Joshua Tree National Park",
    "identifier" : "1121",
    "reuseIdentifier" : "LandmarkRow1",
    "imageName" : "turtlerock",
    "coordinates" : {
      "longitude" : -116.16686799999999,
      "latitude" : 34.011285999999998
    },
    "name" : "Turtle Rock"
  },
  {
    "category" : "Lakes",
    "city" : "Port Alsworth",
    "state" : "Alaska",
    "park" : "Lake Clark National Park and Preserve",
    "identifier" : "1122",
    "reuseIdentifier" : "LandmarkRow",
    "imageName" : "silversalmoncreek",
    "coordinates" : {
      "longitude" : -152.665167,
      "latitude" : 59.980167000000002
    },
    "name" : "Silver Salmon Creek"
  },
  {
    "category" : "Rivers",
    "city" : "Skagway",
    "state" : "Alaska",
    "park" : "Klondike Gold Rush National Historical Park",
    "identifier" : "1123",
    "reuseIdentifier" : "LandmarkRow",
    "imageName" : "chilkoottrail",
    "coordinates" : {
      "longitude" : -135.33457100000001,
      "latitude" : 59.560550999999997
    },
    "name" : "Chilkoot Trail"
  },
  {
    "category" : "Lakes",
    "city" : "Browning",
    "state" : "Montana",
    "park" : "Glacier National Park",
    "identifier" : "1124",
    "reuseIdentifier" : "LandmarkRow",
    "imageName" : "stmarylake",
    "coordinates" : {
      "longitude" : -113.536248,
      "latitude" : 48.694229999999997
    },
    "name" : "St. Mary Lake"
  },
  {
    "category" : "Lakes",
    "city" : "Twin Lakes",
    "state" : "Alaska",
    "park" : "Lake Clark National Park and Preserve",
    "identifier" : "1125",
    "reuseIdentifier" : "LandmarkRow2",
    "imageName" : "twinlake",
    "coordinates" : {
      "longitude" : -153.84988300000001,
      "latitude" : 60.641683999999998
    },
    "name" : "Twin Lake"
  },
  {
    "category" : "Lakes",
    "city" : "West Glacier",
    "state" : "Montana",
    "park" : "Glacier National Park",
    "identifier" : "1126",
    "reuseIdentifier" : "LandmarkRow",
    "imageName" : "lakemcdonald",
    "coordinates" : {
      "longitude" : -113.934831,
      "latitude" : 48.560020000000002
    },
    "name" : "Lake McDonald"
  },
  {
    "category" : "Rivers",
    "city" : "Eaking",
    "state" : "Alaska",
    "park" : "Charley Rivers National Preserve",
    "identifier" : "1127",
    "reuseIdentifier" : "LandmarkRow",
    "imageName" : "yukon_charleyrivers",
    "coordinates" : {
      "longitude" : -143.12258600000001,
      "latitude" : 65.350020999999998
    },
    "name" : "Charley Rivers"
  },
  {
    "category" : "Lakes",
    "city" : "Icy Bay",
    "state" : "Alaska",
    "park" : "Wrangell-St. Elias National Park and Preserve",
    "identifier" : "1128",
    "reuseIdentifier" : "LandmarkRow1",
    "imageName" : "icybay",
    "coordinates" : {
      "longitude" : -141.51816700000001,
      "latitude" : 60.089917
    },
    "name" : "Icy Bay"
  },
  {
    "category" : "Lakes",
    "city" : "Willow",
    "state" : "Alaska",
    "park" : "State Recreation Area",
    "identifier" : "1129",
    "reuseIdentifier" : "LandmarkRow",
    "imageName" : "rainbowlake",
    "coordinates" : {
      "longitude" : -150.08610300000001,
      "latitude" : 61.694333999999998
    },
    "name" : "Rainbow Lake"
  },
  {
    "category" : "Lakes",
    "city" : "Newhalem",
    "state" : "Washington",
    "park" : "North Cascades National Park",
    "identifier" : "1130",
    "reuseIdentifier" : "LandmarkRow",
    "imageName" : "hiddenlake",
    "coordinates" : {
      "longitude" : -121.17798999999999,
      "latitude" : 48.495441999999997
    },
    "name" : "Hidden Lake"
  },
  {
    "category" : "Rivers",
    "city" : "Chincoteague",
    "state" : "Virginia",
    "park" : "Chincoteague National Wildlife Refuge",
    "identifier" : "1131",
    "reuseIdentifier" : "LandmarkRow",
    "imageName" : "chincoteague",
    "coordinates" : {
      "longitude" : -75.383212,
      "latitude" : 37.915309999999998
    },
    "name" : "Chincoteague"
  },
  {
    "category" : "Lakes",
    "city" : "Errol",
    "state" : "New Hampshire",
    "park" : "Umbagog National Wildlife Refuge",
    "identifier" : "1132",
    "reuseIdentifier" : "LandmarkRow2",
    "imageName" : "umbagog",
    "coordinates" : {
      "longitude" : -71.056815999999998,
      "latitude" : 44.747408
    },
    "name" : "Lake Umbagog"
  },
  {
    "category" : "Featured",
    "city" : "Twentynine Palms",
    "state" : "California",
    "park" : "Joshua Tree National Park",
    "identifier" : "1133",
    "reuseIdentifier" : "LandmarkRow",
    "imageName" : "turtlerock",
    "coordinates" : {
      "longitude" : -116.16686799999999,
      "latitude" : 34.011285999999998
    },
    "name" : "Turtle Rock"
  },
  {
    "category" : "Lakes",
    "city" : "Port Alsworth",
    "state" : "Alaska",
    "park" : "Lake Clark National Park and Preserve",
    "identifier" : "1134",
    "reuseIdentifier" : "LandmarkRow",
    "imageName" : "silversalmoncreek",
    "coordinates" : {
      "longitude" : -152.665167,
      "latitude" : 59.980167000000002
    },
    "name" : "Silver Salmon Creek"
  },
  {
    "category" : "Rivers",
    "city" : "Skagway",
    "state" : "Alaska",
    "park" : "Klondike Gold Rush National Historical Park",
    "identifier" : "1135",
    "reuseIdentifier" : "LandmarkRow",
    "imageName" : "chilkoottrail",
    "coordinates" : {
      "longitude" : -135.33457100000001,
      "latitude" : 59.560550999999997
    },
    "name" : "Chilkoot Trail"
  },
  {
    "category" : "Lakes",
    "city" : "Browning",
    "state" : "Montana",
    "park" : "Glacier National Park",
    "identifier" : "1136",
    "reuseIdentifier" : "LandmarkRow1",
    "imageName" : "stmarylake",
    "coordinates" : {
      "longitude" : -113.536248,
      "latitude" : 48.694229999999997
    },
    "name" : "St. Mary Lake"
  },
  {
    "category" : "Lakes",
    "city" : "Twin Lakes",
    "state" : "Alaska",
    "park" : "Lake Clark National Park and Preserve",
    "identifier" : "1137",
    "reuseIdentifier" : "LandmarkRow",
    "imageName" : "twinlake",
    "coordinates" : {
      "longitude" : -153.84988300000001,
      "latitude" : 60.641683999999998
    },
    "name" : "Twin Lake"
  },
  {
    "category" : "Lakes",
    "city" : "West Glacier",
    "state" : "Montana",
    "park" : "Glacier National Park",
    "identifier" : "1138",
    "reuseIdentifier" : "LandmarkRow2",
    "imageName" : "lakemcdonald",
    "coordinates" : {
      "longitude" : -113.934831,
      "latitude" : 48.560020000000002
    },
    "name" : "Lake McDonald"
  },
  {
    "category" : "Rivers",
    "city" : "Eaking",
    "state" : "Alaska",
    "park" : "Charley Rivers National Preserve",
    "identifier" : "1139",
    "reuseIdentifier" : "LandmarkRow",
    "imageName" : "yukon_charleyrivers",
    "coordinates" : {
      "longitude" : -143.12258600000001,
      "latitude" : 65.350020999999998
    },
    "name" : "Charley Rivers"
  },
  {
    "category" : "Lakes",
    "city" : "Icy Bay",
    "state" : "Alaska",
    "park" : "Wrangell-St. Elias National Park and Preserve",
    "identifier" : "1140",
    "reuseIdentifier" : "LandmarkRow",
    "imageName" : "icybay",
    "coordinates" : {
      "longitude" : -141.51816700000001,
      "latitude" : 60.089917
    },
    "name" : "Icy Bay"
  },
  {
    "category" : "Lakes",
    "city" : "Willow",
    "state" : "Alaska",
    "park" : "State Recreation Area",
    "identifier" : "1141",
    "reuseIdentifier" : "LandmarkRow1",
    "imageName" : "rainbowlake",
    "coordinates" : {
      "longitude" : -150.08610300000001,
      "latitude" : 61.694333999999998
    },
    "name" : "Rainbow Lake"
  },
  {
    "category" : "Lakes",
    "city" : "Newhalem",
    "state" : "Washington",
    "park" : "North Cascades National Park",
    "identifier" : "1142",
    "reuseIdentifier" : "LandmarkRow",
    "imageName" : "hiddenlake",
    "coordinates" : {
      "longitude" : -121.17798999999999,
      "latitude" : 48.495441999999997
    },
    "name" : "Hidden Lake"
  },
  {
    "category" : "Rivers",
    "city" : "Chincoteague",
    "state" : "Virginia",
    "park" : "Chincoteague National Wildlife Refuge",
    "identifier" : "1143",
    "reuseIdentifier" : "LandmarkRow",
    "imageName" : "chincoteague",
    "coordinates" : {
      "longitude" : -75.383212,
      "latitude" : 37.915309999999998
    },
    "name" : "Chincoteague"
  },
  {
    "category" : "Lakes",
    "city" : "Errol",
    "state" : "New Hampshire",
    "park" : "Umbagog National Wildlife Refuge",
    "identifier" : "1144",
    "reuseIdentifier" : "LandmarkRow2",
    "imageName" : "umbagog",
    "coordinates" : {
      "longitude" : -71.056815999999998,
      "latitude" : 44.747408
    },
    "name" : "Lake Umbagog"
  },
  {
    "category" : "Featured",
    "city" : "Twentynine Palms",
    "state" : "California",
    "park" : "Joshua Tree National Park",
    "identifier" : "1145",
    "reuseIdentifier" : "LandmarkRow",
    "imageName" : "turtlerock",
    "coordinates" : {
      "longitude" : -116.16686799999999,
      "latitude" : 34.011285999999998
    },
    "name" : "Turtle Rock"
  },
  {
    "category" : "Lakes",
    "city" : "Port Alsworth",
    "state" : "Alaska",
    "park" : "Lake Clark National Park and Preserve",
    "identifier" : "1146",
    "reuseIdentifier" : "LandmarkRow1",
    "imageName" : "silversalmoncreek",
    "coordinates" : {
      "longitude" : -152.665167,
      "latitude" : 59.980167000000002
    },
    "name" : "Silver Salmon Creek"
  },
  {
    "category" : "Rivers",
    "city" : "Skagway",
    "state" : "Alaska",
    "park" : "Klondike Gold Rush National Historical Park",
    "identifier" : "1147",
    "reuseIdentifier" : "LandmarkRow",
    "imageName" : "chilkoottrail",
    "coordinates" : {
      "longitude" : -135.33457100000001,
      "latitude" : 59.560550999999997
    },
    "name" : "Chilkoot Trail"
  },
  {
    "category" : "Lakes",
    "city" : "Browning",
    "state" : "Montana",
    "park" : "Glacier National Park",
    "identifier" : "1148",
    "reuseIdentifier" : "LandmarkRow",
    "imageName" : "stmarylake",
    "coordinates" : {
      "longitude" : -113.536248,
      "latitude" : 48.694229999999997
    },
    "name" : "St. Mary Lake"
  },
  {
    "category" : "Lakes",
    "city" : "Twin Lakes",
    "state" : "Alaska",
    "park" : "Lake Clark National Park and Preserve",
    "identifier" : "1149",
    "reuseIdentifier" : "LandmarkRow2",
    "imageName" : "twinlake",
    "coordinates" : {
      "longitude" : -153.84988300000001,
      "latitude" : 60.641683999999998
    },
    "name" : "Twin Lake"
  },
  {
    "category" : "Lakes",
    "city" : "West Glacier",
    "state" : "Montana",
    "park" : "Glacier National Park",
    "identifier" : "1150",
    "reuseIdentifier" : "LandmarkRow",
    "imageName" : "lakemcdonald",
    "coordinates" : {
      "longitude" : -113.934831,
      "latitude" : 48.560020000000002
    },
    "name" : "Lake McDonald"
  },
  {
    "category" : "Rivers",
    "city" : "Eaking",
    "state" : "Alaska",
    "park" : "Charley Rivers National Preserve",
    "identifier" : "1151",
    "reuseIdentifier" : "LandmarkRow",
    "imageName" : "yukon_charleyrivers",
    "coordinates" : {
      "longitude" : -143.12258600000001,
      "latitude" : 65.350020999999998
    },
    "name" : "Charley Rivers"
  },
  {
    "category" : "Lakes",
    "city" : "Icy Bay",
    "state" : "Alaska",
    "park" : "Wrangell-St. Elias National Park and Preserve",
    "identifier" : "1152",
    "reuseIdentifier" : "LandmarkRow1",
    "imageName" : "icybay",
    "coordinates" : {
      "longitude" : -141.51816700000001,
      "latitude" : 60.089917
    },
    "name" : "Icy Bay"
  },
  {
    "category" : "Lakes",
    "city" : "Willow",
    "state" : "Alaska",
    "park" : "State Recreation Area",
    "identifier" : "1153",
    "reuseIdentifier" : "LandmarkRow",
    "imageName" : "rainbowlake",
    "coordinates" : {
      "longitude" : -150.08610300000001,
      "latitude" : 61.694333999999998
    },
    "name" : "Rainbow Lake"
  },
  {
    "category" : "Lakes",
    "city" : "Newhalem",
    "state" : "Washington",
    "park" : "North Cascades National Park",
    "identifier" : "1154",
    "reuseIdentifier" : "LandmarkRow",
    "imageName" : "hiddenlake",
    "coordinates" : {
      "longitude" : -121.17798999999999,
      "latitude" : 48.495441999999997
    },
    "name" : "Hidden Lake"
  },
  {
    "category" : "Rivers",
    "city" : "Chincoteague",
    "state" : "Virginia",
    "park" : "Chincoteague National Wildlife Refuge",
    "identifier" : "1155",
    "reuseIdentifier" : "LandmarkRow2",
    "imageName" : "chincoteague",
    "coordinates" : {
      "longitude" : -75.383212,
      "latitude" : 37.915309999999998
    },
    "name" : "Chincoteague"
  },
  {
    "category" : "Lakes",
    "city" : "Errol",
    "state" : "New Hampshire",
    "park" : "Umbagog National Wildlife Refuge",
    "identifier" : "1156",
    "reuseIdentifier" : "LandmarkRow",
    "imageName" : "umbagog",
    "coordinates" : {
      "longitude" : -71.056815999999998,
      "latitude" : 44.747408
    },
    "name" : "Lake Umbagog"
  },
  {
    "category" : "Featured",
    "city" : "Twentynine Palms",
    "state" : "California",
    "park" : "Joshua Tree National Park",
    "identifier" : "1157",
    "reuseIdentifier" : "LandmarkRow1",
    "imageName" : "turtlerock",
    "coordinates" : {
      "longitude" : -116.16686799999999,
      "latitude" : 34.011285999999998
    },
    "name" : "Turtle Rock"
  },
  {
    "category" : "Lakes",
    "city" : "Port Alsworth",
    "state" : "Alaska",
    "park" : "Lake Clark National Park and Preserve",
    "identifier" : "1158",
    "reuseIdentifier" : "LandmarkRow",
    "imageName" : "silversalmoncreek",
    "coordinates" : {
      "longitude" : -152.665167,
      "latitude" : 59.980167000000002
    },
    "name" : "Silver Salmon Creek"
  },
  {
    "category" : "Rivers",
    "city" : "Skagway",
    "state" : "Alaska",
    "park" : "Klondike Gold Rush National Historical Park",
    "identifier" : "1159",
    "reuseIdentifier" : "LandmarkRow2",
    "imageName" : "chilkoottrail",
    "coordinates" : {
      "longitude" : -135.33457100000001,
      "latitude" : 59.560550999999997
    },
    "name" : "Chilkoot Trail"
  },
  {
    "category" : "Lakes",
    "city" : "Browning",
    "state" : "Montana",
    "park" : "Glacier National Park",
    "identifier" : "1160",
    "reuseIdentifier" : "LandmarkRow",
    "imageName" : "stmarylake",
    "coordinates" : {
      "longitude" : -113.536248,
      "latitude" : 48.694229999999997
    },
    "name" : "St. Mary Lake"
  },
  {
    "category" : "Lakes",
    "city" : "Twin Lakes",
    "state" : "Alaska",
    "park" : "Lake Clark National Park and Preserve",
    "identifier" : "1161",
    "reuseIdentifier" : "LandmarkRow",
    "imageName" : "twinlake",
    "coordinates" : {
      "longitude" : -153.84988300000001,
      "latitude" : 60.641683999999998
    },
    "name" : "Twin Lake"
  },
  {
    "category" : "Lakes",
    "city" : "West Glacier",
    "state" : "Montana",
    "park" : "Glacier National Park",
    "identifier" : "1162",
    "reuseIdentifier" : "LandmarkRow1",
    "imageName" : "lakemcdonald",
    "coordinates" : {
      "longitude" : -113.934831,
      "latitude" : 48.560020000000002
    },
    "name" : "Lake McDonald"
  },
  {
    "category" : "Rivers",
    "city" : "Eaking",
    "state" : "Alaska",
    "park" : "Charley Rivers National Preserve",
    "identifier" : "1163",
    "reuseIdentifier" : "LandmarkRow2",
    "imageName" : "yukon_charleyrivers",
    "coordinates" : {
      "longitude" : -143.12258600000001,
      "latitude" : 65.350020999999998
    },
    "name" : "Charley Rivers"
  },
  {
    "category" : "Lakes",
    "city" : "Icy Bay",
    "state" : "Alaska",
    "park" : "Wrangell-St. Elias National Park and Preserve",
    "identifier" : "1164",
    "reuseIdentifier" : "LandmarkRow",
    "imageName" : "icybay",
    "coordinates" : {
      "longitude" : -141.51816700000001,
      "latitude" : 60.089917
    },
    "name" : "Icy Bay"
  },
  {
    "category" : "Lakes",
    "city" : "Willow",
    "state" : "Alaska",
    "park" : "State Recreation Area",
    "identifier" : "1165",
    "reuseIdentifier" : "LandmarkRow1",
    "imageName" : "rainbowlake",
    "coordinates" : {
      "longitude" : -150.08610300000001,
      "latitude" : 61.694333999999998
    },
    "name" : "Rainbow Lake"
  },
  {
    "category" : "Lakes",
    "city" : "Newhalem",
    "state" : "Washington",
    "park" : "North Cascades National Park",
    "identifier" : "1166",
    "reuseIdentifier" : "LandmarkRow",
    "imageName" : "hiddenlake",
    "coordinates" : {
      "longitude" : -121.17798999999999,
      "latitude" : 48.495441999999997
    },
    "name" : "Hidden Lake"
  },
  {
    "category" : "Rivers",
    "city" : "Chincoteague",
    "state" : "Virginia",
    "park" : "Chincoteague National Wildlife Refuge",
    "identifier" : "1167",
    "reuseIdentifier" : "LandmarkRow2",
    "imageName" : "chincoteague",
    "coordinates" : {
      "longitude" : -75.383212,
      "latitude" : 37.915309999999998
    },
    "name" : "Chincoteague"
  },
  {
    "category" : "Lakes",
    "city" : "Errol",
    "state" : "New Hampshire",
    "park" : "Umbagog National Wildlife Refuge",
    "identifier" : "1168",
    "reuseIdentifier" : "LandmarkRow",
    "imageName" : "umbagog",
    "coordinates" : {
      "longitude" : -71.056815999999998,
      "latitude" : 44.747408
    },
    "name" : "Lake Umbagog"
  },
  {
    "category" : "Featured",
    "city" : "Twentynine Palms",
    "state" : "California",
    "park" : "Joshua Tree National Park",
    "identifier" : "1169",
    "reuseIdentifier" : "LandmarkRow",
    "imageName" : "turtlerock",
    "coordinates" : {
      "longitude" : -116.16686799999999,
      "latitude" : 34.011285999999998
    },
    "name" : "Turtle Rock"
  },
  {
    "category" : "Lakes",
    "city" : "Port Alsworth",
    "state" : "Alaska",
    "park" : "Lake Clark National Park and Preserve",
    "identifier" : "1170",
    "reuseIdentifier" : "LandmarkRow1",
    "imageName" : "silversalmoncreek",
    "coordinates" : {
      "longitude" : -152.665167,
      "latitude" : 59.980167000000002
    },
    "name" : "Silver Salmon Creek"
  },
  {
    "category" : "Rivers",
    "city" : "Skagway",
    "state" : "Alaska",
    "park" : "Klondike Gold Rush National Historical Park",
    "identifier" : "1171",
    "reuseIdentifier" : "LandmarkRow",
    "imageName" : "chilkoottrail",
    "coordinates" : {
      "longitude" : -135.33457100000001,
      "latitude" : 59.560550999999997
    },
    "name" : "Chilkoot Trail"
  },
  {
    "category" : "Lakes",
    "city" : "Browning",
    "state" : "Montana",
    "park" : "Glacier National Park",
    "identifier" : "1172",
    "reuseIdentifier" : "LandmarkRow",
    "imageName" : "stmarylake",
    "coordinates" : {
      "longitude" : -113.536248,
      "latitude" : 48.694229999999997
    },
    "name" : "St. Mary Lake"
  },
  {
    "category" : "Lakes",
    "city" : "Twin Lakes",
    "state" : "Alaska",
    "park" : "Lake Clark National Park and Preserve",
    "identifier" : "1173",
    "reuseIdentifier" : "LandmarkRow",
    "imageName" : "twinlake",
    "coordinates" : {
      "longitude" : -153.84988300000001,
      "latitude" : 60.641683999999998
    },
    "name" : "Twin Lake"
  },
  {
    "category" : "Lakes",
    "city" : "West Glacier",
    "state" : "Montana",
    "park" : "Glacier National Park",
    "identifier" : "1174",
    "reuseIdentifier" : "LandmarkRow2",
    "imageName" : "lakemcdonald",
    "coordinates" : {
      "longitude" : -113.934831,
      "latitude" : 48.560020000000002
    },
    "name" : "Lake McDonald"
  },
  {
    "category" : "Rivers",
    "city" : "Eaking",
    "state" : "Alaska",
    "park" : "Charley Rivers National Preserve",
    "identifier" : "1175",
    "reuseIdentifier" : "LandmarkRow",
    "imageName" : "yukon_charleyrivers",
    "coordinates" : {
      "longitude" : -143.12258600000001,
      "latitude" : 65.350020999999998
    },
    "name" : "Charley Rivers"
  },
  {
    "category" : "Lakes",
    "city" : "Icy Bay",
    "state" : "Alaska",
    "park" : "Wrangell-St. Elias National Park and Preserve",
    "identifier" : "1176",
    "reuseIdentifier" : "LandmarkRow1",
    "imageName" : "icybay",
    "coordinates" : {
      "longitude" : -141.51816700000001,
      "latitude" : 60.089917
    },
    "name" : "Icy Bay"
  },
  {
    "category" : "Lakes",
    "city" : "Willow",
    "state" : "Alaska",
    "park" : "State Recreation Area",
    "identifier" : "1177",
    "reuseIdentifier" : "LandmarkRow",
    "imageName" : "rainbowlake",
    "coordinates" : {
      "longitude" : -150.08610300000001,
      "latitude" : 61.694333999999998
    },
    "name" : "Rainbow Lake"
  },
  {
    "category" : "Lakes",
    "city" : "Newhalem",
    "state" : "Washington",
    "park" : "North Cascades National Park",
    "identifier" : "1178",
    "reuseIdentifier" : "LandmarkRow2",
    "imageName" : "hiddenlake",
    "coordinates" : {
      "longitude" : -121.17798999999999,
      "latitude" : 48.495441999999997
    },
    "name" : "Hidden Lake"
  },
  {
    "category" : "Rivers",
    "city" : "Chincoteague",
    "state" : "Virginia",
    "park" : "Chincoteague National Wildlife Refuge",
    "identifier" : "1179",
    "reuseIdentifier" : "LandmarkRow",
    "imageName" : "chincoteague",
    "coordinates" : {
      "longitude" : -75.383212,
      "latitude" : 37.915309999999998
    },
    "name" : "Chincoteague"
  },
  {
    "category" : "Lakes",
    "city" : "Errol",
    "state" : "New Hampshire",
    "park" : "Umbagog National Wildlife Refuge",
    "identifier" : "1180",
    "reuseIdentifier" : "LandmarkRow1",
    "imageName" : "umbagog",
    "coordinates" : {
      "longitude" : -71.056815999999998,
      "latitude" : 44.747408
    },
    "name" : "Lake Umbagog"
  },
  {
    "category" : "Featured",
    "city" : "Twentynine Palms",
    "state" : "California",
    "park" : "Joshua Tree National Park",
    "identifier" : "1181",
    "reuseIdentifier" : "LandmarkRow",
    "imageName" : "turtlerock",
    "coordinates" : {
      "longitude" : -116.16686799999999,
      "latitude" : 34.011285999999998
    },
    "name" : "Turtle Rock"
  },
  {
    "category" : "Lakes",
    "city" : "Port Alsworth",
    "state" : "Alaska",
    "park" : "Lake Clark National Park and Preserve",
    "identifier" : "1182",
    "reuseIdentifier" : "LandmarkRow2",
    "imageName" : "silversalmoncreek",
    "coordinates" : {
      "longitude" : -152.665167,
      "latitude" : 59.980167000000002
    },
    "name" : "Silver Salmon Creek"
  },
  {
    "category" : "Rivers",
    "city" : "Skagway",
    "state" : "Alaska",
    "park" : "Klondike Gold Rush National Historical Park",
    "identifier" : "1183",
    "reuseIdentifier" : "LandmarkRow",
    "imageName" : "chilkoottrail",
    "coordinates" : {
      "longitude" : -135.33457100000001,
      "latitude" : 59.560550999999997
    },
    "name" : "Chilkoot Trail"
  },
  {
    "category" : "Lakes",
    "city" : "Browning",
    "state" : "Montana",
    "park" : "Glacier National Park",
    "identifier" : "1184",
    "reuseIdentifier" : "LandmarkRow",
    "imageName" : "stmarylake",
    "coordinates" : {
      "longitude" : -113.536248,
      "latitude" : 48.694229999999997
    },
    "name" : "St. Mary Lake"
  },
  {
    "category" : "Lakes",
    "city" : "Twin Lakes",
    "state" : "Alaska",
    "park" : "Lake Clark National Park and Preserve",
    "identifier" : "1185",
    "reuseIdentifier" : "LandmarkRow1",
    "imageName" : "twinlake",
    "coordinates" : {
      "longitude" : -153.84988300000001,
      "latitude" : 60.641683999999998
    },
    "name" : "Twin Lake"
  },
  {
    "category" : "Lakes",
    "city" : "West Glacier",
    "state" : "Montana",
    "park" : "Glacier National Park",
    "identifier" : "1186",
    "reuseIdentifier" : "LandmarkRow",
    "imageName" : "lakemcdonald",
    "coordinates" : {
      "longitude" : -113.934831,
      "latitude" : 48.560020000000002
    },
    "name" : "Lake McDonald"
  },
  {
    "category" : "Rivers",
    "city" : "Eaking",
    "state" : "Alaska",
    "park" : "Charley Rivers National Preserve",
    "identifier" : "1187",
    "reuseIdentifier" : "LandmarkRow2",
    "imageName" : "yukon_charleyrivers",
    "coordinates" : {
      "longitude" : -143.12258600000001,
      "latitude" : 65.350020999999998
    },
    "name" : "Charley Rivers"
  },
  {
    "category" : "Lakes",
    "city" : "Icy Bay",
    "state" : "Alaska",
    "park" : "Wrangell-St. Elias National Park and Preserve",
    "identifier" : "1188",
    "reuseIdentifier" : "LandmarkRow1",
    "imageName" : "icybay",
    "coordinates" : {
      "longitude" : -141.51816700000001,
      "latitude" : 60.089917
    },
    "name" : "Icy Bay"
  },
  {
    "category" : "Lakes",
    "city" : "Willow",
    "state" : "Alaska",
    "park" : "State Recreation Area",
    "identifier" : "1189",
    "reuseIdentifier" : "LandmarkRow",
    "imageName" : "rainbowlake",
    "coordinates" : {
      "longitude" : -150.08610300000001,
      "latitude" : 61.694333999999998
    },
    "name" : "Rainbow Lake"
  },
  {
    "category" : "Lakes",
    "city" : "Newhalem",
    "state" : "Washington",
    "park" : "North Cascades National Park",
    "identifier" : "1190",
    "reuseIdentifier" : "LandmarkRow",
    "imageName" : "hiddenlake",
    "coordinates" : {
      "longitude" : -121.17798999999999,
      "latitude" : 48.495441999999997
    },
    "name" : "Hidden Lake"
  },
  {
    "category" : "Rivers",
    "city" : "Chincoteague",
    "state" : "Virginia",
    "park" : "Chincoteague National Wildlife Refuge",
    "identifier" : "1191",
    "reuseIdentifier" : "LandmarkRow",
    "imageName" : "chincoteague",
    "coordinates" : {
      "longitude" : -75.383212,
      "latitude" : 37.915309999999998
    },
    "name" : "Chincoteague"
  },
  {
    "category" : "Lakes",
    "city" : "Errol",
    "state" : "New Hampshire",
    "park" : "Umbagog National Wildlife Refuge",
    "identifier" : "1192",
    "reuseIdentifier" : "LandmarkRow",
    "imageName" : "umbagog",
    "coordinates" : {
      "longitude" : -71.056815999999998,
      "latitude" : 44.747408
    },
    "name" : "Lake Umbagog"
  },
  {
    "category" : "Featured",
    "city" : "Twentynine Palms",
    "state" : "California",
    "park" : "Joshua Tree National Park",
    "identifier" : "1193",
    "reuseIdentifier" : "LandmarkRow",
    "imageName" : "turtlerock",
    "coordinates" : {
      "longitude" : -116.16686799999999,
      "latitude" : 34.011285999999998
    },
    "name" : "Turtle Rock"
  },
  {
    "category" : "Lakes",
    "city" : "Port Alsworth",
    "state" : "Alaska",
    "park" : "Lake Clark National Park and Preserve",
    "identifier" : "1194",
    "reuseIdentifier" : "LandmarkRow",
    "imageName" : "silversalmoncreek",
    "coordinates" : {
      "longitude" : -152.665167,
      "latitude" : 59.980167000000002
    },
    "name" : "Silver Salmon Creek"
  },
  {
    "category" : "Rivers",
    "city" : "Skagway",
    "state" : "Alaska",
    "park" : "Klondike Gold Rush National Historical Park",
    "identifier" : "1195",
    "reuseIdentifier" : "LandmarkRow2",
    "imageName" : "chilkoottrail",
    "coordinates" : {
      "longitude" : -135.33457100000001,
      "latitude" : 59.560550999999997
    },
    "name" : "Chilkoot Trail"
  },
  {
    "category" : "Lakes",
    "city" : "Browning",
    "state" : "Montana",
    "park" : "Glacier National Park",
    "identifier" : "1196",
    "reuseIdentifier" : "LandmarkRow",
    "imageName" : "stmarylake",
    "coordinates" : {
      "longitude" : -113.536248,
      "latitude" : 48.694229999999997
    },
    "name" : "St. Mary Lake"
  },
  {
    "category" : "Lakes",
    "city" : "Twin Lakes",
    "state" : "Alaska",
    "park" : "Lake Clark National Park and Preserve",
    "identifier" : "1197",
    "reuseIdentifier" : "LandmarkRow1",
    "imageName" : "twinlake",
    "coordinates" : {
      "longitude" : -153.84988300000001,
      "latitude" : 60.641683999999998
    },
    "name" : "Twin Lake"
  },
  {
    "category" : "Lakes",
    "city" : "West Glacier",
    "state" : "Montana",
    "park" : "Glacier National Park",
    "identifier" : "1198",
    "reuseIdentifier" : "LandmarkRow2",
    "imageName" : "lakemcdonald",
    "coordinates" : {
      "longitude" : -113.934831,
      "latitude" : 48.560020000000002
    },
    "name" : "Lake McDonald"
  },
  {
    "category" : "Rivers",
    "city" : "Eaking",
    "state" : "Alaska",
    "park" : "Charley Rivers National Preserve",
    "identifier" : "1199",
    "reuseIdentifier" : "LandmarkRow",
    "imageName" : "yukon_charleyrivers",
    "coordinates" : {
      "longitude" : -143.12258600000001,
      "latitude" : 65.350020999999998
    },
    "name" : "Charley Rivers"
  },
  {
    "category" : "Lakes",
    "city" : "Icy Bay",
    "state" : "Alaska",
    "park" : "Wrangell-St. Elias National Park and Preserve",
    "identifier" : "1200",
    "reuseIdentifier" : "LandmarkRow1",
    "imageName" : "icybay",
    "coordinates" : {
      "longitude" : -141.51816700000001,
      "latitude" : 60.089917
    },
    "name" : "Icy Bay"
  },
  {
    "category" : "Lakes",
    "city" : "Willow",
    "state" : "Alaska",
    "park" : "State Recreation Area",
    "identifier" : "1201",
    "reuseIdentifier" : "LandmarkRow2",
    "imageName" : "rainbowlake",
    "coordinates" : {
      "longitude" : -150.08610300000001,
      "latitude" : 61.694333999999998
    },
    "name" : "Rainbow Lake"
  },
  {
    "category" : "Lakes",
    "city" : "Newhalem",
    "state" : "Washington",
    "park" : "North Cascades National Park",
    "identifier" : "1202",
    "reuseIdentifier" : "LandmarkRow",
    "imageName" : "hiddenlake",
    "coordinates" : {
      "longitude" : -121.17798999999999,
      "latitude" : 48.495441999999997
    },
    "name" : "Hidden Lake"
  },
  {
    "category" : "Rivers",
    "city" : "Chincoteague",
    "state" : "Virginia",
    "park" : "Chincoteague National Wildlife Refuge",
    "identifier" : "1203",
    "reuseIdentifier" : "LandmarkRow",
    "imageName" : "chincoteague",
    "coordinates" : {
      "longitude" : -75.383212,
      "latitude" : 37.915309999999998
    },
    "name" : "Chincoteague"
  },
  {
    "category" : "Lakes",
    "city" : "Errol",
    "state" : "New Hampshire",
    "park" : "Umbagog National Wildlife Refuge",
    "identifier" : "1204",
    "reuseIdentifier" : "LandmarkRow1",
    "imageName" : "umbagog",
    "coordinates" : {
      "longitude" : -71.056815999999998,
      "latitude" : 44.747408
    },
    "name" : "Lake Umbagog"
  },
  {
    "category" : "Featured",
    "city" : "Twentynine Palms",
    "state" : "California",
    "park" : "Joshua Tree National Park",
    "identifier" : "1205",
    "reuseIdentifier" : "LandmarkRow",
    "imageName" : "turtlerock",
    "coordinates" : {
      "longitude" : -116.16686799999999,
      "latitude" : 34.011285999999998
    },
    "name" : "Turtle Rock"
  },
  {
    "category" : "Lakes",
    "city" : "Port Alsworth",
    "state" : "Alaska",
    "park" : "Lake Clark National Park and Preserve",
    "identifier" : "1206",
    "reuseIdentifier" : "LandmarkRow2",
    "imageName" : "silversalmoncreek",
    "coordinates" : {
      "longitude" : -152.665167,
      "latitude" : 59.980167000000002
    },
    "name" : "Silver Salmon Creek"
  },
  {
    "category" : "Rivers",
    "city" : "Skagway",
    "state" : "Alaska",
    "park" : "Klondike Gold Rush National Historical Park",
    "identifier" : "1207",
    "reuseIdentifier" : "LandmarkRow",
    "imageName" : "chilkoottrail",
    "coordinates" : {
      "longitude" : -135.33457100000001,
      "latitude" : 59.560550999999997
    },
    "name" : "Chilkoot Trail"
  },
  {
    "category" : "Lakes",
    "city" : "Browning",
    "state" : "Montana",
    "park" : "Glacier National Park",
    "identifier" : "1208",
    "reuseIdentifier" : "LandmarkRow1",
    "imageName" : "stmarylake",
    "coordinates" : {
      "longitude" : -113.536248,
      "latitude" : 48.694229999999997
    },
    "name" : "St. Mary Lake"
  },
  {
    "category" : "Lakes",
    "city" : "Twin Lakes",
    "state" : "Alaska",
    "park" : "Lake Clark National Park and Preserve",
    "identifier" : "1209",
    "reuseIdentifier" : "LandmarkRow2",
    "imageName" : "twinlake",
    "coordinates" : {
      "longitude" : -153.84988300000001,
      "latitude" : 60.641683999999998
    },
    "name" : "Twin Lake"
  },
  {
    "category" : "Lakes",
    "city" : "West Glacier",
    "state" : "Montana",
    "park" : "Glacier National Park",
    "identifier" : "1210",
    "reuseIdentifier" : "LandmarkRow",
    "imageName" : "lakemcdonald",
    "coordinates" : {
      "longitude" : -113.934831,
      "latitude" : 48.560020000000002
    },
    "name" : "Lake McDonald"
  },
  {
    "category" : "Rivers",
    "city" : "Eaking",
    "state" : "Alaska",
    "park" : "Charley Rivers National Preserve",
    "identifier" : "1211",
    "reuseIdentifier" : "LandmarkRow",
    "imageName" : "yukon_charleyrivers",
    "coordinates" : {
      "longitude" : -143.12258600000001,
      "latitude" : 65.350020999999998
    },
    "name" : "Charley Rivers"
  },
  {
    "category" : "Lakes",
    "city" : "Icy Bay",
    "state" : "Alaska",
    "park" : "Wrangell-St. Elias National Park and Preserve",
    "identifier" : "1212",
    "reuseIdentifier" : "LandmarkRow1",
    "imageName" : "icybay",
    "coordinates" : {
      "longitude" : -141.51816700000001,
      "latitude" : 60.089917
    },
    "name" : "Icy Bay"
  },
  {
    "category" : "Lakes",
    "city" : "Willow",
    "state" : "Alaska",
    "park" : "State Recreation Area",
    "identifier" : "1213",
    "reuseIdentifier" : "LandmarkRow",
    "imageName" : "rainbowlake",
    "coordinates" : {
      "longitude" : -150.08610300000001,
      "latitude" : 61.694333999999998
    },
    "name" : "Rainbow Lake"
  },
  {
    "category" : "Lakes",
    "city" : "Newhalem",
    "state" : "Washington",
    "park" : "North Cascades National Park",
    "identifier" : "1214",
    "reuseIdentifier" : "LandmarkRow2",
    "imageName" : "hiddenlake",
    "coordinates" : {
      "longitude" : -121.17798999999999,
      "latitude" : 48.495441999999997
    },
    "name" : "Hidden Lake"
  },
  {
    "category" : "Rivers",
    "city" : "Chincoteague",
    "state" : "Virginia",
    "park" : "Chincoteague National Wildlife Refuge",
    "identifier" : "1215",
    "reuseIdentifier" : "LandmarkRow",
    "imageName" : "chincoteague",
    "coordinates" : {
      "longitude" : -75.383212,
      "latitude" : 37.915309999999998
    },
    "name" : "Chincoteague"
  },
  {
    "category" : "Lakes",
    "city" : "Errol",
    "state" : "New Hampshire",
    "park" : "Umbagog National Wildlife Refuge",
    "identifier" : "1216",
    "reuseIdentifier" : "LandmarkRow1",
    "imageName" : "umbagog",
    "coordinates" : {
      "longitude" : -71.056815999999998,
      "latitude" : 44.747408
    },
    "name" : "Lake Umbagog"
  }
]
